     2.11           OBSERVATION DATA    G (GPS)             RINEX VERSION / TYPE
teqc  2009Apr15     UNAVCO Archive Ops  20090512 03:01:36UTCPGM / RUN BY / DATE
Solaris 5.10|UltraSparc IIIi|cc -xarch=v9 SC5.8|=+|*Sparc   COMMENT
BIT 2 OF LLI FLAGS DATA COLLECTED UNDER A/S CONDITION       COMMENT
NAS0                                                        MARKER NAME
43607S001                                                   MARKER NUMBER
John Braun          UCAR                                    OBSERVER / AGENCY
4632120726          TRIMBLE NETRS       1.2-0               REC # / TYPE / VERS
60154383            TRM41249.00     NONE                    ANT # / TYPE
  1255071.5459 -5643665.1731  2684343.0011                  APPROX POSITION XYZ
        0.0000        0.0000        0.0000                  ANTENNA: DELTA H/E/N
     1     1                                                WAVELENGTH FACT L1/2
     7    L1    L2    C1    P2    P1    S1    S2            # / TYPES OF OBSERV
    30.0000                                                 INTERVAL
RINEX file created by UNAVCO GPS Archive.                   COMMENT
For more information contact archive@unavco.org             COMMENT
Monument ID: 21433                                          COMMENT
UNAVCO 4-char name:   NAS0                                  COMMENT
4-char name from Log or data file: NAS0                     COMMENT
Monument location: 25.052559 -77.462256 -16.476             COMMENT
Visit ID: 96114                                             COMMENT
End of DB comments                                          COMMENT
 SNR is mapped to RINEX snr flag value [0-9]                COMMENT
  L1 & L2: min(max(int(snr_dBHz/6), 0), 9)                  COMMENT
  2009     5    11     0     0    0.0000000     GPS         TIME OF FIRST OBS
                                                            END OF HEADER
 09  5 11  0  0  0.0000000  0 11G25G31G 6G 7G19G32G23G16G 3G20G13
 122856315.17246  95732165.51744  23378774.2004   23378765.5994
        41.400          24.700
 126364938.76446  98466154.11644  24046445.3564   24046437.4004
        40.500          24.500
 108695662.75748  84697932.49446  20684081.8054   20684073.1464
        51.500          40.300
 130702891.02246 101846365.76243  24871930.4394   24871923.9484
        40.200          22.000
 114595286.96047  89295040.72445  21806737.1224   21806728.1704
        46.000          33.800
 124902049.38647  97326227.75643  23768075.4234   23768070.2224
        42.600          22.300
 106974234.56048  83356519.58746  20356513.3424   20356502.5144
        50.400          38.800
 114052692.34547  88872180.85745  21703487.5344   21703478.8754
        47.900          33.900
 106250410.36748  82792550.61446  20218759.8944   20218751.7044
        50.300          38.200
 124840508.12647  97278286.41144  23756365.4284   23756358.4104
        45.300          25.900
 117848995.39747  91830360.63845  22425916.4944   22425908.0694
        47.000          31.000
 09  5 11  0  0 30.0000000  0 11G25G31G 6G 7G19G32G23G16G 3G20G13
 122792500.59447  95682439.92544  23366629.6074   23366622.7644
        42.300          27.000
 126415367.21546  98505448.98543  24056040.2974   24056033.1034
        38.200          22.600
 108692291.51348  84695305.56746  20683439.8274   20683431.8724
        50.700          40.400
 130631249.94346 101790541.50243  24858298.8564   24858290.7834
        40.400          21.300
 114506075.24447  89225525.15845  21789760.0394   21789751.3224
        45.000          33.500
 124977244.03347  97384820.86143  23782384.7184   23782380.3384
        43.400          22.300
 106940030.58848  83329867.15246  20350005.2344   20349993.8794
        51.300          38.800
 114119682.16348  88924380.71145  21716235.7894   21716226.2514
        48.000          33.700
 106208235.07848  82759686.77546  20210734.1454   20210726.0144
        50.700          38.200
 124906478.77547  97329691.99644  23768917.8114   23768912.5514
        44.300          27.500
 117760739.76547  91761590.04945  22409120.4874   22409112.7074
        44.900          30.600
 09  5 11  0  1  0.0000000  0 11G25G31G 6G 7G19G32G23G16G 3G20G13
 122728629.86946  95632670.62644  23354474.7884   23354469.1184
        41.000          26.600
 126465940.89846  98544857.05844  24065664.8344   24065656.5854
        40.400          25.200
 108689477.95448  84693113.19946  20682904.6684   20682896.4194
        49.600          40.100
 130559510.31046 101734640.47643  24844646.3844   24844639.0734
        39.100          20.400
 114417173.04247  89156250.74645  21772842.8174   21772833.3964
        43.700          33.000
 125052404.75947  97443387.64243  23796687.2814   23796682.1974
        42.800          21.700
 106906391.29448  83303654.73346  20343603.7684   20343592.5304
        50.300          38.900
 114186777.32947  88976662.65245  21729002.5044   21728993.6694
        45.900          33.500
 106166627.65748  82727265.43046  20202815.9844   20202808.1454
        50.000          38.400
 124972519.92147  97381152.56944  23781485.3504   23781479.5044
        43.500          27.100
 117672789.65747  91693057.50845  22392384.3414   22392376.8544
        45.200          30.400
 09  5 11  0  1 30.0000000  0 11G25G31G 6G 7G19G32G23G16G 3G20G13
 122664703.03446  95582857.53244  23342310.0274   23342303.0684
        40.600          25.300
 126516660.19446  98584378.60644  24075316.4874   24075308.4734
        40.600          25.900
 108687221.90448  84691355.25146  20682475.1844   20682467.3454
        48.900          40.200
 130487671.61546 101678662.25743  24830976.2584   24830968.7124
        39.400          22.600
 114328582.81747  89087219.43645  21755984.9454   21755975.0554
        45.400          32.700
 125127528.28246  97501925.34643  23810982.2824   23810978.7224
        41.700          20.400
 106873317.79048  83277883.19146  20337309.8904   20337298.8274
        49.600          39.200
 114253975.46048  89029024.82945  21741790.7834   21741781.3034
        48.000          33.400
 106125589.27648  82695287.49846  20195006.9394   20194998.5144
        50.000          38.000
 125038628.28647  97432665.48344  23794065.6954   23794059.5564
        44.600          27.200
 117585147.35847  91624764.83244  22375707.4544   22375698.0924
        46.100          29.700
 09  5 11  0  2  0.0000000  0 11G25G31G 6G 7G19G32G23G16G 3G20G13
 122600721.05346  95533001.49744  23330135.9384   23330127.3964
        41.400          24.900
 126567526.39146  98624014.60244  24084995.6034   24084987.9404
        39.400          26.900
 108685523.46548  84690031.80746  20682152.2644   20682144.7774
        48.000          40.500
 130415734.38646 101622607.24543  24817286.6694   24817280.1194
        39.200          21.500
 114240307.84047  89018433.78745  21739186.9384   21739177.2824
        45.100          32.800
 125202612.37347  97560432.36343  23825271.5784   23825265.3214
        43.500          19.900
 106840812.08948  83252554.08346  20331124.5054   20331113.3254
        50.200          39.000
 114321274.80547  89081465.86545  21754597.5264   21754587.8124
        47.900          33.300
 106085121.32448  82663754.05746  20187306.4694   20187298.1614
        50.200          38.500
 125104801.04847  97484228.60544  23806658.1744   23806651.8014
        45.200          27.300
 117497816.07047  91556714.47345  22359087.6044   22359079.7074
        44.700          30.400
 09  5 11  0  2 30.0000000  0 11G25G31G 6G 7G19G32G23G16G 3G20G13
 122536685.23946  95483103.51743  23317949.3994   23317942.3224
        40.100          23.900
 126618540.42346  98663765.77343  24094703.1854   24094696.1094
        40.300          22.800
 108684383.73348  84689143.71746  20681934.6604   20681927.7014
        48.900          40.000
 130343699.14846 101566475.85543  24803580.2844   24803571.8014
        38.300          19.300
 114152351.69147  88949896.57845  21722448.9924   21722439.2194
        44.500          32.300
 125277654.96447  97618907.05743  23839550.9084   23839546.4694
        42.200          22.200
 106808876.45048  83227669.18046  20325047.1154   20325035.2914
        50.400          38.600
 114388674.10948  89133984.79445  21767422.2864   21767413.6274
        48.000          33.000
 106045226.68848  82632667.34646  20179714.5664   20179706.5514
        50.800          37.700
 125171036.36747  97535840.45944  23819262.8694   23819256.0854
        44.100          26.700
 117410799.42147  91488909.34245  22342529.2114   22342521.4314
        45.100          31.200
 09  5 11  0  3  0.0000000  0 11G25G31G 6G 7G19G32G23G16G 3G20G13
 122472596.73446  95433164.47544  23305753.8904   23305746.6384
        40.100          25.300
 126669703.81046  98703633.34543  24104440.3244   24104431.8994
        40.600          23.900
 108683803.08248  84688691.27946  20681824.0064   20681816.1094
        49.800          39.800
 130271566.91946 101510268.85943  24789853.8124   24789845.7974
        40.800          22.500
 114064718.29747  88881610.87645  21705772.4034   21705762.6884
        44.700          33.100
 125352654.23446  97677347.87543  23853822.2324   23853818.9074
        40.700          18.600
 106777513.69648  83203230.68746  20319079.1384   20319067.4904
        50.200          38.700
 114456172.42247  89186580.87445  21780267.3404   21780258.5054
        47.300          32.700
 106005907.06948  82602028.70946  20172232.4134   20172224.0474
        50.900          38.500
 125237331.80047  97587499.14444  23831877.7814   23831872.3454
        42.700          26.300
 117324100.99347  91421352.16045  22326031.3934   22326023.1444
        45.900          31.600
 09  5 11  0  3 30.0000000  0 11G25G31G 6G 7G19G32G23G16G 3G20G13
 122408454.34447  95383183.43144  23293547.6384   23293541.0894
        42.300          27.600
 126721015.38946  98743616.38844  24114204.0014   24114195.5764
        40.700          25.400
 108683779.85748  84688673.19646  20681820.3374   20681812.1464
        49.600          39.600
 130199335.84446 101453984.86943  24776107.1944   24776100.7624
        40.500          21.500
 113977408.56947  88813577.38045  21689158.4174   21689148.4104
        45.400          32.600
 125427605.65547  97735751.49243  23868088.2224   23868081.7904
        43.100          21.800
 106746723.10848  83179238.03446  20313220.0054   20313208.7094
        50.700          39.500
 114523765.73348  89239250.96945  21793130.0474   21793120.9194
        48.000          33.100
 105967162.08948  82571837.83646  20164859.2024   20164851.1884
        50.200          38.400
 125303682.60247  97639200.96444  23844504.0654   23844498.2784
        42.900          25.100
 117237721.66747  91354043.62945  22309594.2354   22309585.1654
        45.500          30.900
 09  5 11  0  4  0.0000000  0 11G25G31G 6G 7G19G32G23G16G 3G20G13
 122344258.90647  95333161.05644  23281332.3984   23281325.9664
        42.500          27.000
 126772476.11946  98783715.68443  24123996.0374   24123988.7854
        39.800          22.800
 108684314.17348  84689089.57246  20681921.6794   20681913.6064
        50.000          40.300
 130127006.48346 101397624.27943  24762343.3324   24762336.6074
        40.200          20.900
 113890425.42747  88745798.37845  21672606.0174   21672596.0684
        44.800          32.900
 125502506.70447  97794115.88943  23882339.5984   23882335.2764
        42.600          21.500
 106716506.45448  83155692.59446  20307469.6134   20307458.7264
        50.800          39.600
 114591452.28247  89291993.72945  21806010.5924   21806000.8194
        47.200          32.800
 105928992.94548  82542095.66946  20157595.7544   20157587.6224
        50.200          38.300
 125370086.43146  97690944.15344  23857139.9384   23857134.1514
        41.300          25.600
 117151664.53847  91286986.12844  22293216.9924   22293209.2124
        44.500          29.700
 09  5 11  0  4 30.0000000  0 11G25G31G 6G 7G19G32G23G16G 3G20G13
 122280013.11346  95283099.48444  23269105.5624   23269099.9514
        41.000          26.500
 126824088.62246  98823933.21544  24133818.3314   24133810.6694
        40.200          26.000
 108685408.11848  84689942.00946  20682130.0514   20682121.8614
        48.500          40.200
 130054580.98846 101341188.80443  24748562.2534   24748555.3524
        41.500          22.600
 113803773.92247  88678277.76445  21656116.9794   21656106.0924
        44.300          31.600
 125577357.04946  97852440.78643  23896581.7254   23896578.3994
        39.500          18.300
 106686867.65648  83132597.43246  20301829.4474   20301818.5024
        49.800          39.000
 114659232.23347  89344809.27245  21818908.8924   21818899.2374
        47.000          33.200
 105891403.75548  82512805.40246  20150442.6254   20150434.3764
        50.500          37.600
 125436542.17047  97742727.77844  23869787.3524   23869781.0964
        42.900          27.200
 117065934.47047  91220183.54645  22276903.2374   22276896.2784
        44.500          31.100
 09  5 11  0  5  0.0000000  0 11G25G31G 6G 7G19G32G23G16G 3G20G13
 122215715.56847  95232997.50444  23256871.3884   23256862.8464
        43.000          26.700
 126875851.03846  98864267.55344  24143667.3394   24143660.1454
        40.400          25.800
 108687059.40147  84691228.74646  20682444.0204   20682435.9474
        47.800          39.600
 129982057.34446 101284676.83543  24734761.2734   24734754.1974
        40.000          21.100
 113717455.04847  88611016.37645  21639690.6424   21639680.4014
        45.300          32.000
 125652151.83046  97910722.28843  23910815.4994   23910811.8814
        40.200          20.600
 106657805.83348  83109951.86846  20296299.4834   20296288.7144
        50.700          39.300
 114727101.68647  89397694.54545  21831823.5094   21831814.4404
        47.200          32.300
 105854393.57648  82483966.32646  20143400.2214   20143391.7964
        50.700          37.900
 125503044.67347  97794547.79544  23882440.5344   23882436.6224
        42.200          25.300
 116980532.41047  91153636.51845  22260652.5374   22260644.4644
        44.900          32.100
 09  5 11  0  5 30.0000000  0 11G25G31G 6G 7G19G32G23G16G 3G20G13
 122151367.71147  95182856.32944  23244625.4864   23244617.3554
        42.100          27.400
 126927765.22046  98904720.18244  24153547.6464   24153538.7534
        41.800          25.600
 108689268.83548  84692950.41046  20682864.2404   20682856.3434
        49.300          39.700
 129909436.49746 101228089.17243  24720942.1024   24720934.0884
        40.200          19.600
 113631472.41047  88544016.98645  21623328.7324   21623318.4324
        44.100          31.900
 125726889.26946  97968959.20543  23925037.7714   23925033.9184
        39.800          20.100
 106629323.01648  83087757.46646  20290878.6574   20290868.4744
        49.100          39.800
 114795059.73847  89450648.87745  21844755.7364   21844746.3734
        47.700          32.500
 105817964.69548  82455580.20846  20136468.1204   20136459.6954
        50.800          37.900
 125569592.07146  97846402.84944  23895104.3384   23895099.7224
        41.400          25.300
 116895461.95647  91087347.88645  22244463.5124   22244455.5564
        44.300          30.400
 09  5 11  0  6  0.0000000  0 11G25G31G 6G 7G19G32G23G16G 3G20G13
 122086969.92347  95132676.27444  23232371.9184   23232364.9584
        43.100          27.600
 126979831.61346  98945291.36444  24163455.4344   24163446.5414
        40.600          25.000
 108692036.05048  84695106.70546  20683391.2704   20683383.0214
        49.300          39.500
 129836718.14546 101171425.43643  24707103.2664   24707096.5414
        39.900          20.400
 113545828.47547  88477281.53645  21607031.4214   21607020.4764
        45.200          31.400
 125801566.54646  98027149.22943  23939248.2854   23939244.4904
        40.800          20.900
 106601421.06248  83066015.68346  20285569.7844   20285558.7814
        50.200          39.500
 114863104.05147  89503670.39845  21857704.0704   21857694.8254
        45.800          32.300
 105782117.79148  82427647.58246  20129646.4314   20129638.0654
        50.000          37.700
 125636181.01946  97898290.25644  23907775.7914   23907771.0004
        40.900          24.000
 116810725.65447  91021319.63945  22228339.7254   22228330.3044
        45.100          32.400
 09  5 11  0  6 30.0000000  0 11G25G31G 6G 7G19G32G23G16G 3G20G13
 122022523.48947  95082458.30544  23220107.0424   23220101.3134
        43.100          29.100
 127032050.83546  98985981.68244  24173392.1044   24173383.9144
        41.400          26.500
 108695361.56348  84697698.03746  20684023.7404   20684015.9024
        49.700          40.000
 129763903.43146 101114686.73243  24693247.6794   24693240.6034
        41.700          22.600
 113460527.19847  88410813.08945  21590799.2534   21590788.6014
        45.800          32.300
 125876181.69546  98085290.86643  23953446.0654   23953442.6804
        38.700          18.600
 106574101.92748  83044728.04246  20280371.0354   20280359.9734
        50.400          39.700
 114931233.21347  89556758.04145  21870668.4114   21870659.6944
        46.400          32.100
 105746854.94748  82400170.06246  20122936.0004   20122927.7514
        49.600          38.000
 125702809.55946  97950208.55044  23920455.9024   23920450.1734
        40.000          25.100
 116726326.87847  90955554.41645  22212278.9474   22212270.7564
        44.200          33.500
 09  5 11  0  7  0.0000000  0 11G25G31G 6G 7G19G32G23G16G 3G20G13
 121958030.23047  95032203.87044  23207834.9664   23207828.4164
        43.600          27.800
 127084424.89846  99026792.62944  24183358.2344   24183350.5134
        40.300          24.100
 108699246.14548  84700724.99246  20684763.1764   20684755.0454
        50.600          39.700
 129690993.36146 101057873.66343  24679374.5464   24679366.1804
        41.800          22.600
 113375572.25847  88344614.51745  21574632.1524   21574622.1454
        45.600          31.900
 125950733.27046  98143382.90542  23967633.1044   23967630.0134
        39.200          17.800
 106547367.76648  83023896.23246  20275283.7404   20275272.5604
        50.300          39.800
 114999446.66447  89609911.37045  21883649.4674   21883639.9294
        45.600          31.900
 105712178.71848  82373149.63846  20116337.5334   20116329.2844
        51.000          38.500
 125769475.73146  98002156.12443  23933141.5354   23933136.0414
        39.400          23.400
 116642269.67247  90890055.34845  22196282.1214   22196274.9864
        45.100          32.700
 09  5 11  0  7 30.0000000  0 11G25G31G 6G 7G19G32G23G16G 3G20G13
 121893488.57047  94981911.71144  23195553.6864   23195545.6134
        44.300          28.000
 127136952.45446  99067723.18944  24193353.9124   24193346.4834
        41.300          25.200
 108703687.46648  84704185.77346  20685607.8734   20685600.1524
        49.300          39.400
 129617986.37146 101000985.07843  24665480.8894   24665473.2264
        41.500          22.000
 113290964.47547  88278686.46145  21558532.6234   21558521.5614
        46.000          30.900
 126025216.26846  98201421.54943  23981807.4684   23981803.9664
        39.800          22.000
 106521218.11048  83003519.87246  20270307.8024   20270296.7404
        51.400          40.000
 115067740.33647  89663127.20345  21896645.0144   21896635.5934
        44.900          30.700
 105678087.87348  82346585.37646  20109849.9874   20109841.9144
        50.100          38.100
 125836174.61246  98054129.17543  23945833.6684   23945828.8194
        39.200          23.300
 116558554.44547  90824822.76545  22180352.4654   22180343.8644
        45.300          32.600
 09  5 11  0  8  0.0000000  0 11G25G31G 6G 7G19G32G23G16G 3G20G13
 121828899.10447  94931582.24344  23183262.8774   23183253.9844
        43.700          26.100
 127189633.82147  99108773.61144  24203378.4294   24203371.1764
        42.200          25.400
 108708685.22348  84708080.15046  20686559.0294   20686551.0734
        49.100          38.800
 129544882.01946 100944020.64843  24651569.3954   24651562.2604
        41.100          21.500
 113206706.24547  88213030.74845  21542498.4494   21542487.3874
        46.200          31.800
 126099628.19447  98259404.80843  23995968.6324   23995964.4274
        42.100          22.300
 106495653.95748  82983599.75746  20265442.7394   20265431.9114
        49.500          39.800
 115136112.45047  89716404.17245  21909655.8434   21909646.5394
        44.900          30.500
 105644583.30948  82320477.95246  20103474.5754   20103465.9744
        49.900          37.900
 125902903.13146  98106125.36143  23958531.3944   23958527.2484
        39.200          23.800
 116475184.25547  90759859.01745  22164487.7974   22164478.8444
        45.600          32.700
 09  5 11  0  8 30.0000000  0 11G25G31G 6G 7G19G32G23G16G 3G20G13
 121764264.17147  94881217.36044  23170962.5094   23170954.5544
        43.200          27.500
 127242471.12046  99149945.55244  24213432.9704   24213425.8944
        41.700          24.900
 108714240.86348  84712409.23046  20687616.4494   20687608.2584
        49.500          39.300
 129471682.30347 100886981.91243  24637640.9844   24637632.8534
        43.200          21.500
 113122802.45647  88147651.24145  21526531.8954   21526521.7124
        45.500          31.300
 126173968.23946  98317332.00043  24010114.7704   24010110.0384
        40.000          19.000
 106470678.64748  82964138.47046  20260690.8804   20260679.7594
        51.500          39.900
 115204562.64647  89769741.96444  21922681.6754   21922672.1374
        44.600          29.700
 105611668.38848  82294829.97046  20097210.8434   20097202.4184
        49.600          38.200
 125969660.05646  98158143.65244  23971235.9334   23971230.3214
        40.400          24.600
 116392163.40847  90695167.50745  22148689.5864   22148681.2784
        45.000          32.600
 09  5 11  0  9  0.0000000  0 11G25G31G 6G 7G19G32G23G16G 3G20G13
 121699583.44246  94830816.82244  23158654.4714   23158647.8644
        41.700          29.400
 127295464.12846  99191238.78744  24223517.9664   24223510.3034
        41.100          25.400
 108720352.90448  84717171.87946  20688779.9064   20688771.5404
        49.900          38.900
 129398386.70947 100829868.42843  24623693.3064   24623684.9404
        42.700          21.700
 113039254.64647  88082549.09545  21510632.7004   21510623.1034
        45.600          31.700
 126248232.67346  98375200.39343  24024247.0024   24024241.7434
        40.700          19.000
 106446292.15248  82945136.00946  20256049.5854   20256038.8744
        50.500          40.100
 115273087.83547  89823138.21145  21935721.4354   21935711.6624
        44.600          30.000
 105579342.77148  82269641.20046  20091059.3234   20091051.3094
        48.600          38.500
 126036441.68146  98210181.24143  23983943.1314   23983937.9894
        39.700          21.800
 116309493.65347  90630749.58445  22132958.1804   22132949.6384
        47.400          33.000
 09  5 11  0  9 30.0000000  0 11G25G31G 6G 7G19G32G23G16G 3G20G13
 121634858.47247  94780381.84844  23146337.2094   23146330.6594
        42.000          29.700
 127348614.03146  99232654.30944  24233631.0744   24233623.5874
        41.600          24.200
 108727021.98848  84722368.59146  20690048.8444   20690040.8884
        49.000          39.300
 129324996.00547 100772680.87543  24609726.9164   24609719.8984
        42.200          22.800
 112956066.51647  88017727.23745  21494802.3694   21494793.1824
        44.900          31.800
 126322419.72046  98433008.33343  24038365.2724   24038360.2474
        41.500          21.700
 106422496.64648  82926594.06646  20251521.5544   20251510.4914
        50.800          40.400
 115341687.18947  89876592.25145  21948774.9924   21948765.8644
        44.500          30.200
 105547608.62348  82244913.33146  20085020.7954   20085012.7224
        49.800          38.600
 126103245.77546  98262236.30743  23996656.4744   23996650.8044
        40.500          22.300
 116227178.75047  90566608.17545  22117293.9454   22117285.2284
        46.600          31.800
 09  5 11  0 10  0.0000000  0 11G25G31G 6G 7G19G32G23G16G 3G20G13
 121570089.42247  94729912.49044  23134012.9774   23134004.9044
        43.800          29.300
 127401920.76947  99274192.03844  24243775.9744   24243767.9014
        42.700          24.300
 108734247.04048  84727998.51546  20691423.6074   20691415.4754
        49.300          39.700
 129251510.09446 100715419.12543  24595742.1064   24595735.3234
        40.800          21.100
 112873240.28047  87953187.35445  21479040.8454   21479031.2484
        45.700          32.000
 126396526.21046  98490753.57843  24052465.0064   24052461.6814
        39.500          20.400
 106399292.80848  82908513.14346  20247106.0524   20247094.9904
        51.100          39.800
 115410358.56447  89930102.41744  21961842.6414   21961832.8684
        43.400          29.100
 105516466.13148  82220646.47446  20079094.7184   20079086.1174
        50.100          38.300
 126170069.01546  98314306.27343  24009372.3894   24009367.4234
        39.800          22.900
 116145220.92447  90502744.95345  22101697.5644   22101688.7874
        47.200          32.100
 09  5 11  0 10 30.0000000  0 11G25G31G 6G 7G19G32G23G16G 3G20G13
 121505278.14847  94679410.20744  23121679.2984   23121670.8154
        44.900          27.800
 127455386.09647  99315853.30644  24253950.9194   24253941.7324
        43.300          26.100
 108742029.01048  84734062.41746  20692904.3394   20692896.2074
        48.800          39.000
 129177930.13446 100658084.06843  24581740.6114   24581733.7694
        41.600          21.800
 112790779.98547  87888932.62545  21463349.2794   21463339.7414
        44.700          32.600
 126470550.89146  98548435.07043  24066552.0444   24066547.8394
        39.700          19.300
 106376683.09848  82890895.18546  20242803.5004   20242792.5554
        50.000          40.900
 115479100.77947  89983667.77444  21974923.8104   21974914.2714
        45.100          28.600
 105485917.54148  82196842.41146  20073281.0824   20073273.1854
        49.500          38.000
 126236909.24846  98366389.52343  24022091.8014   24022087.2454
        40.400          23.400
 116063623.75847  90439162.80745  22086169.8484   22086161.5994
        46.900          32.300
 09  5 11  0 11  0.0000000  0 11G25G31G 6G 7G19G32G23G16G 3G20G13
 121440424.62147  94628875.02744  23109337.7574   23109329.5664
        44.300          28.000
 127509009.70147  99357637.97944  24264154.0844   24264146.0114
        43.200          25.600
 108750366.58348  84740559.24246  20694491.2364   20694482.2254
        50.400          39.100
 129104255.28446 100600675.11343  24567720.7084   24567713.9834
        41.600          22.600
 112708687.51147  87824964.50345  21447727.4664   21447718.2204
        44.800          33.100
 126544490.47546  98606050.23843  24080622.3804   24080618.6444
        40.400          18.600
 106354667.92948  82873740.52646  20238614.3214   20238603.4944
        51.100          40.500
 115547911.52947  90037286.54744  21988018.6884   21988008.7984
        45.900          29.000
 105455963.18348  82173501.37346  20067580.9344   20067573.2724
        50.300          37.600
 126303763.33646  98418483.53643  24034813.8214   24034808.7374
        39.800          23.000
 115982389.60947  90375863.53745  22070711.2584   22070703.6534
        45.600          32.700
 09  5 11  0 11 30.0000000  0 11G25G31G 6G 7G19G32G23G16G 3G20G13
 121375529.27547  94578307.25744  23096988.3364   23096981.0834
        44.500          29.600
 127562791.95246  99399546.21344  24274387.1394   24274381.1764
        41.400          25.200
 108759259.04948  84747488.45146  20696183.2484   20696175.1164
        49.600          38.800
 129030485.97447 100543192.53743  24553683.5894   24553676.8054
        42.600          23.500
 112626965.35947  87761284.94445  21432176.9184   21432166.6184
        44.800          33.500
 126618341.95846  98663596.86343  24094677.1814   24094672.0974
        41.100          21.100
 106333248.20048  82857049.82946  20234538.3164   20234527.4884
        50.800          40.800
 115616788.75047  90090957.10944  22001124.8154   22001115.6874
        45.000          29.000
 105426604.16748  82150624.23846  20061994.3574   20061986.0494
        50.100          39.000
 126370628.17646  98470585.87343  24047537.2174   24047532.3674
        36.700          20.900
 115901520.88047  90312848.98245  22055323.4444   22055314.2584
        47.200          32.800
 09  5 11  0 12  0.0000000  0 11G25G31G 6G 7G19G32G23G16G 3G20G13
 121310593.93247  94527708.33545  23084631.5894   23084625.1574
        44.900          30.000
 127616734.06647  99441579.03544  24284652.6994   24284645.9164
        42.100          25.800
 108768707.13248  84754850.60146  20697981.2754   20697972.4984
        50.200          39.000
 128956623.17547 100485637.12143  24539627.5744   24539620.7904
        42.800          22.800
 112545617.31747  87697896.91745  21416696.8244   21416687.3454
        45.800          33.900
 126692103.78046  98721073.57043  24108711.9094   24108708.9354
        36.100          19.900
 106312425.92748  82840824.68846  20230575.4154   20230564.9394
        51.000          40.400
 115685731.56447  90144678.77344  22014244.6954   22014235.2164
        45.800          29.300
 105397842.19448  82128212.33446  20056520.9944   20056513.2734
        49.900          38.600
 126437501.67546  98522695.07143  24060263.4484   24060257.7784
        38.300          20.900
 115821021.15547  90250121.96745  22040004.3114   22039995.2414
        47.600          32.500
 09  5 11  0 12 30.0000000  0 11G25G31G 6G 7G19G32G23G16G 3G20G13
 121245618.39947  94477078.12444  23072267.2414   23072260.7504
        45.300          29.400
 127670835.99447  99483736.39043  24294948.3604   24294940.8734
        42.900          23.900
 108778709.52048  84762644.69646  20699884.1544   20699876.2574
        49.200          39.400
 128882666.38947 100428008.46343  24525554.1184   24525547.2174
        42.700          22.600
 112464645.51347  87634802.06745  21401288.5184   21401278.9214
        46.200          35.200
 126765772.95246  98778477.94043  24122730.9284   24122728.3064
        38.300          20.100
 106292201.60448  82825065.47046  20226727.1834   20226716.2964
        50.800          40.200
 115754737.43447  90198449.58844  22027376.1814   22027366.4084
        44.700          29.400
 105369677.44748  82106265.80346  20051161.1484   20051152.8414
        50.600          38.500
 126504380.17346  98574808.11643  24072990.5364   24072984.3394
        38.400          22.500
 115740892.66747  90187684.23145  22024756.2324   22024747.8664
        47.300          32.700
 09  5 11  0 13  0.0000000  0 11G25G31G 6G 7G19G32G23G16G 3G20G13
 121180603.70547  94426417.34244  23059895.3714   23059887.0634
        45.000          28.000
 127725098.09847  99526018.55444  24305274.6594   24305267.3484
        43.000          26.400
 108789265.74148  84770870.34146  20701893.1214   20701885.0484
        49.500          38.300
 128808615.98347 100370306.81043  24511462.9834   24511455.0274
        43.100          22.000
 112384052.53647  87572002.40845  21385951.7814   21385942.3604
        45.500          35.100
 126839346.57346  98835808.01143  24136732.7724   24136728.3334
        39.100          21.100
 106272576.53548  82809773.21246  20222992.4614   20222981.8094
        50.200          40.100
 115823804.67147  90252268.21444  22040518.8664   22040509.1514
        44.600          28.300
 105342110.29448  82084784.93946  20045915.3574   20045907.1674
        49.000          38.200
 126571260.68346  98626922.75343  24085716.6914   24085710.7864
        38.900          21.500
 115661138.16447  90125537.88645  22009579.8854   22009570.8744
        46.900          31.800
 09  5 11  0 13 30.0000000  0 11G25G31G 6G 7G19G32G23G16G 3G20G13
 121115551.00247  94375726.95944  23047516.1564   23047507.8494
        45.600          28.800
 127779521.81947  99568426.67144  24315630.3864   24315623.5444
        43.200          25.300
 108800375.62248  84779527.39246  20704007.3574   20703999.1084
        48.700          38.900
 128734472.78246 100312532.97443  24497353.7514   24497346.5574
        41.800          22.500
 112303841.48547  87509500.34445  21370688.4564   21370678.2154
        45.900          35.100
 126912822.95146  98893062.33242  24150713.6274   24150709.9504
        36.200          17.400
 106253551.51648  82794948.52446  20219372.1564   20219361.3864
        50.000          40.000
 115892932.25547  90306133.85644  22053673.1844   22053663.6464
        42.900          29.400
 105315142.72448  82063771.26746  20040783.6834   20040775.3764
        50.500          38.800
 126638141.38746  98679037.49643  24098443.4514   24098438.4854
        38.100          21.500
 115581760.92547  90063685.53745  21994474.5494   21994465.9494
        46.000          32.300
 09  5 11  0 14  0.0000000  0 11G25G31G 6G 7G19G32G23G16G 3G20G13
 121050461.15647  94325007.64845  23035130.8254   23035122.9274
        46.400          30.700
 127834107.26347  99610960.74844  24326018.7004   24326010.2754
        44.500          27.000
 108812038.70948  84788615.52846  20706227.0164   20706218.5334
        48.300          39.300
 128660237.07947 100254686.96444  24483227.4874   24483220.4104
        42.000          25.600
 112224015.24347  87447298.12645  21355497.9184   21355487.7354
        46.700          35.300
 126986199.45146  98950238.73043  24164678.0414   24164673.8374
        37.000          21.100
 106235128.27748  82780592.76146  20215866.7284   20215856.0184
        49.800          40.800
 115962118.21047  90360044.98444  22066839.4364   22066829.7224
        43.700          28.300
 105288775.21448  82043225.17646  20035765.9814   20035757.7324
        50.400          39.200
 126705019.45246  98731150.13643  24111169.6124   24111164.9394
        38.300          20.900
 115502763.59547  90002129.19945  21979441.1394   21979432.5394
        44.300          32.700
 09  5 11  0 14 30.0000000  0 11G25G31G 6G 7G19G32G23G16G 3G20G13
 120985334.74647  94274259.87245  23022737.2774   23022730.2004
        45.900          30.600
 127888854.73947  99653621.18044  24336436.1984   24336428.1834
        44.700          26.000
 108824254.31048  84798134.20746  20708551.6404   20708543.4504
        48.900          38.900
 128585908.87146 100196768.88344  24469083.8594   24469075.9624
        41.700          24.100
 112144576.31447  87385397.72146  21340381.3794   21340371.1964
        47.500          36.000
 127059473.41546  99007335.21843  24178621.4984   24178618.1724
        37.500          22.500
 106217307.56948  82766706.49546  20212475.1224   20212464.4704
        50.000          40.000
 116031360.40047  90413999.93344  22080015.6794   22080005.8484
        43.000          28.700
 105263008.88048  82023147.54246  20030862.7454   20030854.6724
        49.500          38.500
 126771891.60646  98783258.23243  24123896.5874   24123889.8034
        40.100          20.900
 115424148.61547  89940870.82145  21964482.0074   21964473.7004
        45.500          33.200
 09  5 11  0 15  0.0000000  0 11G25G31G 6G 7G19G32G23G16G 3G20G13
 120920172.60347  94223484.24045  23010336.6194   23010329.3664
        44.600          30.200
 127943764.81347  99696408.25243  24346884.2054   24346876.4834
        42.600          22.800
 108837021.81648  84808082.93346  20710980.9224   20710972.5564
        48.700          39.500
 128511488.66846 100138779.15644  24454922.0134   24454914.9364
        40.100          25.500
 112065527.30547  87323801.15146  21325338.9244   21325328.3894
        47.700          36.100
 127132642.35346  99064349.93543  24192546.8324   24192540.8694
        41.600          21.500
 106200090.23448  82753290.39646  20209198.9264   20209187.9804
        49.800          40.200
 116100657.20047  90467997.42744  22093202.4494   22093193.2034
        43.800          27.200
 105237844.25448  82003538.75546  20026074.8804   20026066.2214
        50.200          38.800
 126838755.07746  98835359.57843  24136619.4394   24136613.5934
        40.600          19.300
 115345918.84847  89879912.57245  21949594.7034   21949586.1614
        45.900          32.000
 09  5 11  0 15 30.0000000  0 11G25G31G 6G 7G19G32G23G16G 3G20G13
 120854976.09547  94172681.82744  22997931.0344   22997922.6684
        45.900          29.300
 127998838.50247  99739322.81344  24357365.3884   24357357.6084
        44.400          26.400
 108850341.16148  84818461.66446  20713514.8934   20713506.8204
        48.700          39.200
 128436977.42846 100080718.51743  24440742.3454   24440736.1484
        40.000          22.800
 111986871.82948  87262511.23145  21310371.0134   21310360.1854
        48.100          35.100
 127205704.38646  99121281.27842  24206448.0344   24206443.6534
        38.700          17.800
 106183477.71548  82740345.57246  20206037.9594   20206026.4864
        49.800          40.900
 116170007.91647  90522036.92744  22106399.0264   22106389.9574
        44.200          27.600
 105213282.60448  81984399.83846  20021400.4404   20021391.7814
        49.600          38.600
 126905607.64846  98887452.42543  24149341.6984   24149335.6774
        41.700          21.800
 115268077.61147  89819257.07145  21934782.2854   21934773.6844
        46.400          32.400
 09  5 11  0 16  0.0000000  0 11G25G31G 6G 7G19G32G23G16G 3G20G13
 120789745.61647  94121852.90744  22985518.0624   22985509.2274
        47.000          29.700
 128054075.62547  99782364.73444  24367877.2984   24367869.2254
        45.600          27.100
 108864211.20848  84829269.50946  20716154.6944   20716146.4454
        50.200          39.500
 128362374.71446 100022586.49843  24426546.0104   24426538.0544
        39.400          21.100
 111908611.51647  87201529.23345  21295478.7444   21295468.0924
        47.000          35.100
 127278656.55546  99178127.18343  24220329.7884   24220325.9944
        38.300          18.300
 106167470.49948  82727872.42846  20202991.3964   20202980.4514
        49.700          40.300
 116239409.69047  90576116.21944  22119606.1434   22119596.9564
        44.000          28.400
 105189324.46648  81965731.17846  20016841.1174   20016832.6934
        50.500          39.300
 126972445.90947  98939534.16543  24162061.5634   24162054.3694
        42.900          21.100
 115190627.21047  89758906.14045  21920043.8604   21920035.2014
        45.600          32.400
 09  5 11  0 16 30.0000000  0 11G25G31G 6G 7G19G32G23G16G 3G20G13
 120724482.05047  94070998.25144  22973097.8314   22973090.6374
        45.500          29.300
 128109477.09747  99825534.69044  24378419.4224   24378411.4664
        44.800          25.800
 108878631.32548  84840505.97546  20718898.9074   20718890.5994
        49.000          39.500
 128287680.93147  99964383.56143  24412333.5624   24412324.6104
        43.200          22.800
 111830749.41747  87140857.52045  21280662.0844   21280650.7874
        46.600          35.000
 127351496.44046  99234885.45943  24234191.3304   24234188.6494
        37.100          22.000
 106152069.86548  82715871.94546  20200060.5594   20200050.3764
        49.200          40.400
 116308861.00547  90630234.10944  22132822.6694   22132812.8384
        44.500          26.600
 105165970.08848  81947532.98446  20012397.0894   20012388.3714
        49.400          39.200
 127039267.45746  98991602.79743  24174775.5264   24174770.7364
        41.600          20.100
 115113570.29947  89698861.80645  21905379.8994   21905371.7084
        45.000          32.900
 09  5 11  0 17  0.0000000  0 11G25G31G 6G 7G19G32G23G16G 3G20G13
 120659186.73247  94020118.84645  22960672.3294   22960665.8974
        44.700          30.400
 128165043.37247  99868833.12744  24388993.1944   24388985.1794
        44.400          25.300
 108893601.42848  84852171.00546  20721747.4424   20721739.0764
        49.700          38.900
 128212896.98647  99906110.32843  24398101.9214   24398094.0834
        42.300          22.300
 111753288.89447  87080498.74245  21265921.2974   21265910.5284
        46.200          34.800
 127424222.17146  99291554.79443  24248031.5544   24248027.4664
        39.500          21.100
 106137276.98348  82704345.03046  20197246.2324   20197235.4044
        50.500          40.400
 116378360.92347  90684389.89044  22146047.7064   22146038.1684
        45.100          27.700
 105143221.42748  81929806.77546  20008068.0984   20008059.3214
        50.300          39.100
 127106069.73046  99043656.44443  24187488.9344   24187483.2634
        41.300          22.300
 115036910.28447  89639126.74045  21890792.6984   21890784.1564
        46.600          33.600
 09  5 11  0 17 30.0000000  0 11G25G31G 6G 7G19G32G23G16G 3G20G13
 120593860.64647  93969215.49345  22948241.1344   22948234.4094
        45.500          30.200
 128220775.65347  99912260.91644  24399598.0454   24399590.6164
        43.600          26.200
 108909120.83448  84864264.07646  20724700.6924   20724692.2094
        49.800          39.300
 128138023.40946  99847767.30243  24383853.8774   24383846.0384
        39.700          22.500
 111676232.49147  87020454.84545  21251257.7924   21251246.9644
        46.100          34.400
 127496831.40046  99348133.30943  24261847.1724   24261843.9634
        36.600          19.900
 106123092.91648  82693292.52646  20194546.3984   20194535.8634
        50.000          40.400
 116447908.01947  90738582.41144  22159282.0324   22159272.4944
        44.500          27.700
 105121078.72248  81912552.74846  20003854.8824   20003846.4584
        50.300          39.200
 127172850.14146  99095693.10143  24200195.6174   24200189.7714
        40.400          19.600
 114960649.90547  89579703.07345  21876281.2644   21876272.6634
        46.300          32.800
 09  5 11  0 18  0.0000000  0 11G25G31G 6G 7G19G32G23G16G 3G20G13
 120528505.73647  93918289.63945  22935806.1374   22935797.2434
        46.100          30.300
 128276674.60747  99955818.55344  24410235.6504   24410228.9254
        44.200          26.100
 108925189.96148  84876785.48646  20727758.7564   20727750.0974
        49.000          39.400
 128063061.55346  99789355.50243  24369588.3724   24369581.5304
        39.700          22.800
 111599583.75747  86960728.61845  21236671.7404   21236661.3814
        46.400          33.900
 127569322.76246  99404619.97242  24275642.2584   24275638.8154
        36.300          16.300
 106109519.44148  82682715.79946  20191963.7974   20191952.9694
        50.200          40.600
 116517501.36247  90792810.98944  22172524.7494   22172515.5044
        44.800          27.400
 105099543.72648  81895772.26346  19999756.7954   19999748.3114
        50.900          39.200
 127239606.85046  99147711.24043  24212899.2964   24212893.7434
        40.700          20.100
 114884792.71947  89520593.59645  21861845.8144   21861837.0964
        45.300          33.300
 09  5 11  0 18 30.0000000  0 11G25G31G 6G 7G19G32G23G16G 3G20G13
 120463120.80547  93867340.37644  22923362.0364   22923353.8464
        44.700          28.900
 128332738.89547  99999505.00044  24420904.4704   24420896.8664
        44.900          25.300
 108941805.79448  84889732.90646  20730920.3724   20730912.2994
        49.100          40.100
 127988009.69046  99730873.54843  24355306.6444   24355299.0994
        39.200          22.000
 111523343.38947  86901320.60945  21222163.7424   21222153.7934
        44.600          34.400
 127641691.51646  99461011.34443  24289414.6224   24289409.9494
        37.900          19.000
 106096555.44948  82672613.98546  20189497.0174   20189486.2484
        49.900          40.800
 116587137.32547  90847072.76044  22185776.4264   22185766.9464
        45.600          27.400
 105078614.56548  81879463.84746  19995773.9564   19995765.6484
        51.000          39.400
 127306335.17446  99199707.26543  24225597.4114   24225591.5654
        40.200          20.600
 114809339.48847  89461798.87745  21847487.4314   21847478.6554
        45.900          33.500
 09  5 11  0 19  0.0000000  0 11G25G31G 6G 7G19G32G23G16G 3G20G13
 120397707.34947  93816368.92545  22910914.8024   22910907.4914
        45.900          30.700
 128388969.77547 100043321.28644  24431604.6894   24431597.0264
        44.300          25.000
 108958968.23548  84903106.25546  20734186.1824   20734178.3434
        50.000          39.600
 127912868.99046  99672322.31443  24341007.7564   24340999.0974
        41.000          21.800
 111447514.56047  86842233.25445  21207734.4044   21207723.6934
        46.500          34.500
 127713936.07046  99517305.67943  24303162.7734   24303158.3344
        36.800          21.700
 106084202.22648  82662988.10346  20187145.6084   20187135.7184
        50.000          41.300
 116656814.96547  90901367.02244  22199036.2314   22199026.3414
        45.700          27.400
 105058293.29748  81863629.11446  19991906.5114   19991898.4384
        51.000          40.000
 127373033.02446  99251679.59243  24238289.9654   24238284.6464
        41.600          20.600
 114734293.44847  89403321.46045  21833206.6944   21833197.8004
        46.200          32.800
 09  5 11  0 19 30.0000000  0 11G25G31G 6G 7G19G32G23G16G 3G20G13
 120332267.19247  93765376.68044  22898461.6894   22898454.6124
        45.600          29.800
 128445368.43247 100087268.31444  24442337.7704   24442329.7564
        45.100          25.800
 108976677.30948  84916905.54646  20737556.1124   20737548.0394
        49.700          39.100
 127837640.54946  99613702.74443  24326691.5694   24326684.3164
        39.700          22.500
 111372100.49447  86783469.10045  21193383.4724   21193372.8784
        46.500          34.400
 127786054.91546  99573502.07643  24316885.5314   24316882.4984
        36.900          20.400
 106072461.24048  82653839.29346  20184911.5864   20184901.2854
        50.000          41.000
 116726533.43647  90955693.08144  22212303.0974   22212293.5594
        46.700          27.500
 105038580.79148  81848268.74146  19988155.2804   19988147.4414
        50.600          39.900
 127439698.31047  99303626.47843  24250975.6364   24250970.6104
        42.100          21.500
 114659658.03247  89345164.00545  21819003.7614   21818995.2784
        46.500          32.900
 09  5 11  0 20  0.0000000  0 11G25G31G 6G 7G19G32G23G16G 3G20G13
 120266800.73247  93714363.92044  22886003.8444   22885996.4164
        44.900          29.400
 128501934.62247 100131345.90844  24453101.5954   24453093.8154
        44.400          26.000
 108994931.94848  84931129.95846  20741029.9074   20741021.7754
        49.900          39.600
 127762324.50646  99555014.98744  24312360.2684   24312352.9574
        40.300          25.600
 111297103.63147  86725030.03145  21179111.6614   21179101.7134
        46.300          34.900
 127858045.10645  99629598.16842  24330585.8934   24330582.0394
        35.900          17.800
 106061332.83548  82645167.80346  20182794.2924   20182783.6404
        50.800          41.400
 116796290.46047  91010049.19944  22225576.8584   22225567.4954
        44.000          27.300
 105019477.43248  81833383.03246  19984520.4994   19984512.0164
        50.500          40.300
 127506328.08347  99355545.71943  24263655.5424   24263649.6964
        42.600          21.300
 114585435.74747  89287328.49545  21804880.5074   21804871.2034
        46.600          33.300
 09  5 11  0 20 30.0000000  0 11G25G31G 6G 7G19G32G23G16G 3G20G13
 120201308.58847  93663331.14244  22873541.3664   22873533.8214
        44.800          29.700
 128558668.45647 100175554.13444  24463896.9534   24463890.1104
        44.000          25.500
 109013730.54748  84945778.23346  20744607.1934   20744598.8274
        49.500          39.600
 127686920.54646  99496258.72444  24298011.4134   24298004.6294
        41.800          25.500
 111222525.97347  86666917.61445  21164919.8394   21164910.1244
        46.000          35.100
 127929903.85446  99685592.06442  24344260.8484   24344254.4164
        40.300          17.400
 106050817.20048  82636973.80046  20180793.4744   20180782.2364
        51.200          41.000
 116866084.21747  91064433.92144  22238858.2094   22238848.4374
        43.900          28.800
 105000982.77948  81818971.63946  19981000.8444   19980992.4784
        50.300          40.700
 127572918.95547  99407434.63143  24276327.1904   24276321.5204
        43.900          20.900
 114511628.60547  89229816.47045  21790834.6004   21790825.8234
        45.800          32.700
 09  5 11  0 21  0.0000000  0 11G25G31G 6G 7G19G32G23G16G 3G20G13
 120135792.57447  93612279.73844  22861074.3434   22861064.9224
        45.800          28.600
 128615571.40947 100219894.10144  24474726.4274   24474718.2954
        43.800          24.700
 109033073.49248  84960850.67146  20748288.2744   20748279.6154
        49.500          39.700
 127611430.28446  99437435.16744  24283646.1244   24283639.2824
        40.200          24.600
 111148371.18647  86609134.71146  21150808.2014   21150798.5454
        45.800          36.100
 128001629.82246  99741482.44643  24357907.9854   24357904.5424
        37.300          18.300
 106040916.12248  82629258.67646  20178909.2284   20178897.9904
        51.300          41.000
 116935914.10547  91118846.82444  22252146.9204   22252136.9124
        45.300          28.000
 104983098.81748  81805036.10846  19977597.7094   19977589.3434
        50.100          39.900
 127639469.37347  99459292.04543  24288991.0684   24288984.9294
        42.800          20.100
 114438240.33847  89172630.83345  21776869.8664   21776860.4454
        45.900          33.800
 09  5 11  0 21 30.0000000  0 11G25G31G 6G 7G19G32G23G16G 3G20G13
 120070253.31447  93561210.22844  22848601.8844   22848594.0454
        43.900          29.400
 128672643.37747 100264365.77844  24485585.9004   24485578.4134
        44.000          25.500
 109052959.25848  84976346.08246  20752072.0104   20752063.9374
        51.000          39.300
 127535853.64246  99378544.30843  24269264.3844   24269256.1364
        40.800          22.600
 111074641.33647  86551682.92646  21136778.4634   21136768.1634
        46.900          36.900
 128073220.21546  99797267.05043  24371531.7654   24371528.2644
        36.400          19.300
 106031629.83748  82622022.61946  20177142.0594   20177130.9974
        50.900          40.900
 117005778.50447  91173286.60344  22265441.7584   22265432.1024
        45.300          26.800
 104965825.10548  81791576.08946  19974310.6064   19974302.4744
        50.100          40.400
 127705975.96647  99511115.31443  24301647.6514   24301641.6884
        43.800          20.900
 114365273.06747  89115773.25945  21762984.6704   21762975.6004
        47.300          33.900
 09  5 11  0 22  0.0000000  0 11G25G31G 6G 7G19G32G23G16G 3G20G13
 120004692.07447  93510123.59544  22836126.0704   22836118.7014
        42.300          29.800
 128729885.11647 100308969.79444  24496478.9104   24496470.3094
        44.100          24.600
 109073387.45648  84992264.17946  20755959.5564   20755951.3074
        49.000          39.200
 127460191.67447  99319586.94844  24254866.9524   24254857.7654
        42.900          24.000
 111001339.16747  86494564.39346  21122829.9834   21122819.3314
        47.700          37.100
 128144673.14546  99852944.58943  24385129.8814   24385125.6174
        38.100          19.000
 106022959.22648  82615266.29446  20175491.9684   20175481.0824
        52.100          41.200
 117075675.38547  91227751.69544  22278742.7454   22278733.0304
        46.900          27.500
 104949162.66448  81778592.39746  19971139.9224   19971131.8494
        52.000          40.100
 127772436.43547  99562902.62443  24314294.4144   24314288.3924
        42.900          19.600
 114292729.84047  89059246.10945  21749180.2364   21749170.8744
        46.400          33.500
 09  5 11  0 22 30.0000000  0 11G25G31G 6G 7G19G32G23G16G 3G20G13
 119939109.35647  93459020.23644  22823646.0674   22823638.1694
        42.300          28.900
 128787296.32247 100353705.83743  24507404.7724   24507395.7614
        43.000          22.500
 109094356.71448  85008603.87846  20759949.7874   20759941.4804
        49.700          39.700
 127384444.25847  99260563.03244  24240453.3484   24240444.6304
        43.900          25.200
 110928466.72347  86437780.71146  21108962.0344   21108952.1444
        47.900          38.100
 128215985.56146  99908512.66443  24398699.5914   24398694.9764
        39.100          18.300
 106014904.30548  82608989.73146  20173959.3144   20173948.0764
        50.200          40.900
 117145603.07347  91282240.79644  22292048.3234   22292039.1954
        46.800          28.300
 104933111.70748  81766085.17446  19968085.4894   19968077.0644
        51.100          40.900
 127838847.63246  99614651.52443  24326931.5204   24326926.2014
        41.700          19.900
 114220612.83047  89003051.07645  21735456.2204   21735447.3854
        47.300          33.700
 09  5 11  0 23  0.0000000  0 11G25G31G 6G 7G19G32G23G16G 3G20G13
 119873506.64247  93407901.26544  22811162.9454   22811154.7554
        42.600          28.800
 128844878.46647 100398575.09743  24518360.8854   24518352.8704
        42.900          22.900
 109115866.46348  85025364.74746  20764043.1574   20764034.7914
        49.700          39.200
 127308612.20547  99201473.21244  24226021.8434   24226014.3564
        43.900          27.000
 110856027.32848  86381334.47446  21095177.6014   21095167.7114
        49.100          38.900
 128287155.68046  99963969.98643  24412242.8934   24412237.3404
        38.100          18.300
 106007466.20548  82603193.80546  20172543.9344   20172533.1064
        50.800          41.100
 117215560.64847  91336753.18444  22305361.4604   22305352.3904
        46.600          28.300
 104917672.55548  81754054.68946  19965147.5024   19965139.2534
        50.500          40.400
 127905207.76746  99666360.66843  24339559.7354   24339553.4794
        41.700          19.000
 114148925.51347  88947190.84745  21721814.4324   21721805.7734
        47.200          33.000
 09  5 11  0 23 30.0000000  0 11G25G31G 6G 7G19G32G23G16G 3G20G13
 119807885.03947  93356767.60344  22798674.8254   22798666.1664
        42.200          28.300
 128902631.21147 100443577.24944  24529351.8544   24529343.6634
        44.000          24.400
 109137915.89748  85042546.13846  20768238.6714   20768230.1294
        49.300          38.800
 127232696.00646  99142317.78444  24211574.4144   24211568.1584
        41.000          24.600
 110784023.38848  86325227.54346  21081475.8864   21081465.8794
        48.000          38.200
 128358181.39546 100019314.68142  24425758.0984   24425754.1274
        37.100          16.900
 106000645.69548  82597879.12246  20171245.6634   20171234.7184
        51.200          41.300
 117285546.42447  91391287.54944  22318680.0464   22318670.2154
        47.300          27.800
 104902845.87248  81742501.45546  19962325.9474   19962317.4634
        50.500          40.700
 127971513.49047  99718027.43043  24352178.0914   24352171.6014
        43.100          20.100
 114077669.84747  88891666.98345  21708255.0624   21708246.2854
        47.800          33.600
 09  5 11  0 24  0.0000000  0 11G25G31G 6G 7G19G32G23G16G 3G20G13
 119742245.77547  93305620.11744  22786183.5514   22786175.3604
        43.000          27.700
 128960555.32047 100488712.92844  24540374.0394   24540366.9634
        43.700          26.200
 109160503.94848  85060147.22046  20772537.2154   20772528.5554
        50.300          38.900
 127156696.57146  99083097.46943  24197112.3994   24197104.6774
        41.400          22.500
 110712457.26348  86269461.77646  21067857.3144   21067847.3074
        49.100          39.200
 128429060.40846 100074544.97243  24439246.1174   24439242.0884
        39.400          18.600
 105994443.42648  82593046.18946  20170065.7524   20170054.5144
        51.300          40.800
 117355559.08148  91445842.85244  22332003.0064   22331993.4094
        48.000          29.400
 104888632.13648  81731425.83046  19959621.1434   19959612.5424
        50.200          40.200
 128037762.56747  99769649.99743  24364784.5144   24364778.7274
        43.000          22.300
 114006848.78247  88836481.75245  21694777.9804   21694769.3794
        47.000          34.200
 09  5 11  0 24 30.0000000  0 12G25G31G 6G 7G19G32G23G16G11G 3G20G13
 119676589.31647  93254459.28144  22773689.8344   22773682.5814
        43.900          27.800
 129018650.90047 100533982.22943  24551428.8424   24551420.3004
        43.400          23.600
 109183629.44948  85078167.11346  20776938.1544   20776929.4954
        49.800          38.900
 127080613.93347  99023812.27543  24182634.9174   24182626.1414
        42.000          22.900
 110641331.20348  86214038.91746  21054322.5624   21054312.4384
        48.300          39.200
 128499790.05546 100129659.03143  24452707.4544   24452701.2564
        40.400          19.300
 105988859.35348  82588694.96946  20169002.9854   20168991.8644
        49.500          39.900
 117425597.20047  91500417.99244  22345330.3304   22345320.3814
        46.800          28.700
 135894155.80155                  25859798.0274
        35.200
 104875031.42248  81720827.89246  19957032.9754   19957024.3744
        49.800          39.900
 128103952.10946  99821226.17843  24377379.3144   24377374.9924
        41.400          20.400
 113936464.52747  88781636.91645  21681384.3604   21681375.5844
        46.900          33.400
 09  5 11  0 25  0.0000000  0 12G25G31G 6G 7G19G32G23G16G11G 3G20G13
 119610918.17747  93203287.00944  22761193.5894   22761185.9264
        44.100          29.700
 129076919.40247 100579386.31443  24562516.8344   24562508.9374
        42.100          22.300
 109207292.45548  85096605.83946  20781440.8924   20781432.3504
        48.900          38.500
 127004449.87747  98964463.64644  24168140.8784   24168132.6294
        42.600          25.300
 110570648.87348  86158961.82546  21040872.5194   21040861.9854
        48.100          38.900
 128570369.47946 100184655.91843  24466136.3124   24466132.6354
        38.900          19.900
 105983895.19648  82584826.79446  20168058.3544   20168047.3504
        50.600          40.900
 117495659.73747  91555012.18044  22358662.9324   22358653.0424
        47.000          28.800
 135822455.27645 105835657.28352  25846154.2854   25846148.3814
        33.400          14.800
 104862044.95148  81710708.57646  19954561.6114   19954553.4794
        50.300          39.600
 128170080.81246  99872754.96243  24389963.1094   24389957.9664
        41.600          21.100
 113866521.37347  88727135.77545  21668074.5614   21668065.7264
        46.700          34.000
 09  5 11  0 25 30.0000000  0 11G25G31G 6G 7G19G32G23G16G 3G20G13
 119545230.05847  93152101.46244  22748692.6794   22748684.6064
        43.700          27.400
 129135358.08846 100624922.99843  24573636.3434   24573629.0904
        40.900          22.500
 109231488.87248  85115460.20646  20786044.9804   20786036.9074
        50.200          38.800
 126928201.79847  98905049.61344  24153631.5784   24153624.4434
        43.000          26.200
 110500409.73248  86104230.06146  21027505.2194   21027495.2114
        48.600          38.800
 128640793.01646 100239531.42242  24479537.3804   24479533.4094
        37.900          17.400
 105979548.27448  82581439.59146  20167231.0164   20167220.2474
        49.200          40.500
 117565742.51247  91609622.12144  22371999.1444   22371990.0164
        46.600          28.700
 104849669.71548  81701065.56046  19952206.6684   19952198.3604
        50.500          39.800
 128236142.41646  99924231.45943  24402534.5384   24402529.5134
        41.800          21.100
 113797018.37347  88672977.62045  21654849.0354   21654839.8484
        47.900          34.300
 09  5 11  0 26  0.0000000  0 12G25G31G 6G 7G19G32G23G16G11G 3G20G13
 119479529.46247  93100906.23344  22736191.1994   22736182.7744
        42.200          29.600
